{
  "stat": {
    "count": 25,
    "next": 2,
    "previous": null
  },
  "airports-types": [
    "heliport",
    "seaplane_base",
    "closed",
    "small_airport",
    "large_airport",
    "medium_airport",
    "balloonport"
  ],
  "regions": [
    "DE-HE",
    "BE-WLG",
    "ITA-RM",
    "BG-SOF",
    "BG-BUR",
    "BG-PL",
    "TUR-IST",
    "TUR-ANT",
    "TUR-ANK",
    "JAP-TK",
    "FIN-HEL",
    "SP-MD",
    "SP-BAR",
    "SP-VAL",
    "FR-PS"
  ],
  "countries": [
    "DE",
    "BE",
    "ITA",
    "BG",
    "TUR",
    "JAP",
    "FIN",
    "SP",
    "FR"
  ],
  "airports": [
    {
      "id": 17811,
      "name": "Der Dingel Airfield",
      "ident": "DE-0140",
      "local_code": null,
      "region": "DE-HE",
      "type": "small_airport",
      "country": "DE"
    },
    {
      "id": 18496,
      "name": "5 Gravenvoeren heliport",
      "ident": "EBSN",
      "local_code": null,
      "region": "BE-WLG",
      "type": "closed",
      "country": "BE"
    },
    {
      "id": 12431,
      "name": "s Ita heliport",
      "ident": "EBAS",
      "local_code": null,
      "region": "ITA-RM",
      "type": "heliport",
      "country": "ITA"
    },
    {
      "id": 15313,
      "name": "Airfield heliport",
      "ident": "EBAS",
      "local_code": null,
      "region": "BG-PL",
      "type": "small_airport",
      "country": "BG"
    },
    {
      "id": 11424,
      "name": "Gravenvoeren heliport",
      "ident": "EBAS",
      "local_code": null,
      "region": "BG-PL",
      "type": "small_airport",
      "country": "BG"
    },
    {
      "id": 12572,
      "name": "Airfield Ista",
      "ident": "EBAS",
      "local_code": null,
      "region": "TUR-ANK",
      "type": "heliport",
      "country": "TUR"
    },
    {
      "id": 19380,
      "name": "Asi der heliport",
      "ident": "EBAS",
      "local_code": null,
      "region": "JAP-TK",
      "type": "small_airport",
      "country": "JAP"
    },
    {
      "id": 15092,
      "name": "Der Germ heliport",
      "ident": "EBAS",
      "local_code": null,
      "region": "TUR-IST",
      "type": "closed",
      "country": "TUR"
    },
    {
      "id": 27811,
      "name": "Fin Airfield heliport",
      "ident": "DE-0140",
      "local_code": null,
      "region": "FIN-HEL",
      "type": "large_airport",
      "country": "FIN"
    },
    {
      "id": 2093,
      "name": "Der Germ heliport",
      "ident": "EBAS",
      "local_code": null,
      "region": "TUR-IST",
      "type": "closed",
      "country": "TUR"
    },
    {
      "id": 4873,
      "name": "s Air Ista",
      "ident": "EBAS",
      "local_code": null,
      "region": "SP-BAR",
      "type": "small_airport",
      "country": "SP"
    },
    {
      "id": 23323,
      "name": "Der Dingel Airfield",
      "ident": "EBAS",
      "local_code": null,
      "region": "BG-BUR",
      "type": "small_airport",
      "country": "BG"
    },
    {
      "id": 1424,
      "name": "5 Airfield Ista",
      "ident": "EBAS",
      "local_code": null,
      "region": "TUR-ANT",
      "type": "large_airport",
      "country": "TUR"
    },
    {
      "id": 22542,
      "name": "Sof heliport",
      "ident": "EBAS",
      "local_code": null,
      "region": "BG-SOF",
      "type": "balloonport",
      "country": "BG"
    },
    {
      "id": 19880,
      "name": "Airfield Gravenvoeren",
      "ident": "EBAS",
      "local_code": null,
      "region": "SP-VAL",
      "type": "small_airport",
      "country": "SP"
    },
    {
      "id": 25092,
      "name": "Der Germ heliport",
      "ident": "EBAS",
      "local_code": null,
      "region": "TUR-ANT",
      "type": "closed",
      "country": "TUR"
    },
    {
      "id": 4281,
      "name": "Airfield Gravenvoeren",
      "ident": "EBAS",
      "local_code": null,
      "region": "SP-BAR",
      "type": "large_airport",
      "country": "SP"
    },
    {
      "id": 2091,
      "name": "Der Germ heliport",
      "ident": "EBAS",
      "local_code": null,
      "region": "TUR-IST",
      "type": "seaplane_base",
      "country": "TUR"
    },
    {
      "id": 4873,
      "name": "Airfield Anta",
      "ident": "EBAS",
      "local_code": null,
      "region": "SP-BAR",
      "type": "medium_airport",
      "country": "SP"
    },
    {
      "id": 6292,
      "name": "Der Germ heliport",
      "ident": "EBAS",
      "local_code": null,
      "region": "TUR-IST",
      "type": "closed",
      "country": "TUR"
    },
    {
      "id": 4680,
      "name": "Airfield Gravenvoeren",
      "ident": "EBAS",
      "local_code": null,
      "region": "SP-MD",
      "type": "small_airport",
      "country": "SP"
    },
    {
      "id": 2942,
      "name": "De Fra heliport",
      "ident": "EBAS",
      "local_code": null,
      "region": "FR-PS",
      "type": "closed",
      "country": "FR"
    },
    {
      "id": 17580,
      "name": "s Gravenwezel heliport",
      "ident": "EBAS",
      "local_code": null,
      "region": "SP-MD",
      "type": "medium_airport",
      "country": "SP"
    },
    {
      "id": 2472,
      "name": "La Fra heliport",
      "ident": "EBAS",
      "local_code": null,
      "region": "FR-PS",
      "type": "closed",
      "country": "FR"
    },
    {
      "id": 34252,
      "name": "s Gravenwezel heliport",
      "ident": "EBAS",
      "local_code": null,
      "region": "BG-SOF",
      "type": "seaplane_base",
      "country": "BG"
    },
    {
      "id": 2801,
      "name": "La Fra airport",
      "ident": "EBAS",
      "local_code": null,
      "region": "FR-PS",
      "type": "closed",
      "country": "FR"
    },
    {
      "id": 3126,
      "name": "Gravenwezel airportt",
      "ident": "EBAS",
      "local_code": null,
      "region": "BG-SOF",
      "type": "seaplane_base",
      "country": "BG"
    }
  ],
  "airports-detail": [
    {
      "id": 17811,
      "continent": null,
      "coordinates": "-112.292, 34.6842",
      "country": "DE",
      "elevation_ft": "4978.0",
      "gps_code": "AZ86",
      "iata_code": null,
      "ident": "DE-0140",
      "local_code": null,
      "municipality": "Coyote Springs",
      "name": "Der Dingel Airfield",
      "region": "DE-HE",
      "type": "small_airport"
    },
    {
      "id": 18496,
      "continent": null,
      "coordinates": "-93.292, 21.6154",
      "country": "BE",
      "elevation_ft": "8244.0",
      "gps_code": "RF32",
      "iata_code": null,
      "ident": "EBSN",
      "local_code": null,
      "municipality": "Coyote Thum",
      "name": "5 Gravenvoeren heliport",
      "region": "BE-WLG",
      "type": "closed"
    },
    {
      "id": 12431,
      "name": "s Ita heliport",
      "ident": "EBAS",
      "local_code": null,
      "region": "ITA-RM",
      "type": "heliport",
      "country": "ITA",
      "continent": null,
      "coordinates": "-112.292, 34.6842",
      "municipality": "Coyote Thum",
      "elevation_ft": "8244.0",
      "gps_code": "RF32",
      "iata_code": null
    },
    {
      "id": 15313,
      "name": "Airfield heliport",
      "ident": "EBAS",
      "local_code": null,
      "region": "BG-PL",
      "type": "small_airport",
      "country": "BG",
      "continent": null,
      "coordinates": "-112.292, 34.6842",
      "municipality": "Coyote Thum",
      "elevation_ft": "8244.0",
      "gps_code": "RF32",
      "iata_code": null
    },
    {
      "id": 11424,
      "name": "Gravenvoeren heliport",
      "ident": "EBAS",
      "local_code": null,
      "region": "BG-PL",
      "type": "small_airport",
      "country": "BG",
      "continent": null,
      "coordinates": "-112.292, 34.6842",
      "municipality": "Coyote Thum",
      "elevation_ft": "8244.0",
      "gps_code": "RF32",
      "iata_code": null
    },
    {
      "id": 12572,
      "name": "Airfield Ista",
      "ident": "EBAS",
      "local_code": null,
      "region": "TUR-ANK",
      "type": "heliport",
      "country": "TUR",
      "continent": null,
      "coordinates": "-112.292, 34.6842",
      "municipality": "Coyote Thum",
      "elevation_ft": "8244.0",
      "gps_code": "RF32",
      "iata_code": null
    },
    {
      "id": 19380,
      "name": "Asi der heliport",
      "ident": "EBAS",
      "local_code": null,
      "region": "JAP-TK",
      "type": "small_airport",
      "country": "JAP",
      "continent": null,
      "coordinates": "-112.292, 34.6842",
      "municipality": "Coyote Thum",
      "elevation_ft": "8244.0",
      "gps_code": "RF32",
      "iata_code": null
    },
    {
      "id": 15092,
      "name": "Der Germ heliport",
      "ident": "EBAS",
      "local_code": null,
      "region": "TUR-IST",
      "type": "closed",
      "country": "TUR",
      "continent": null,
      "coordinates": "-112.292, 34.6842",
      "municipality": "Coyote Thum",
      "elevation_ft": "8244.0",
      "gps_code": "RF32",
      "iata_code": null
    },
    {
      "id": 27811,
      "name": "Fin Airfield heliport",
      "ident": "DE-0140",
      "local_code": null,
      "region": "FIN-HEL",
      "type": "large_airport",
      "country": "FIN",
      "continent": null,
      "coordinates": "-112.292, 34.6842",
      "municipality": "Coyote Thum",
      "elevation_ft": "8244.0",
      "gps_code": "RF32",
      "iata_code": null
    },
    {
      "id": 2093,
      "name": "Der Germ heliport",
      "ident": "EBAS",
      "local_code": null,
      "region": "TUR-IST",
      "type": "closed",
      "country": "TUR",
      "continent": null,
      "coordinates": "-112.292, 34.6842",
      "municipality": "Coyote Thum",
      "elevation_ft": "8244.0",
      "gps_code": "RF32",
      "iata_code": null
    },
    {
      "id": 4873,
      "name": "s Air Ista",
      "ident": "EBAS",
      "local_code": null,
      "region": "SP-BAR",
      "type": "small_airport",
      "country": "SP",
      "continent": null,
      "coordinates": "-112.292, 34.6842",
      "municipality": "Coyote Thum",
      "elevation_ft": "8244.0",
      "gps_code": "RF32",
      "iata_code": null
    },
    {
      "id": 23323,
      "name": "Der Dingel Airfield",
      "ident": "EBAS",
      "local_code": null,
      "region": "BG-BUR",
      "type": "small_airport",
      "country": "BG",
      "continent": null,
      "coordinates": "-112.292, 34.6842",
      "municipality": "Coyote Thum",
      "elevation_ft": "8244.0",
      "gps_code": "RF32",
      "iata_code": null
    },
    {
      "id": 1424,
      "name": "5 Airfield Ista",
      "ident": "EBAS",
      "local_code": null,
      "region": "TUR-ANT",
      "type": "large_airport",
      "country": "TUR",
      "continent": null,
      "coordinates": "-112.292, 34.6842",
      "municipality": "Coyote Thum",
      "elevation_ft": "8244.0",
      "gps_code": "RF32",
      "iata_code": null
    },
    {
      "id": 22542,
      "name": "Sof heliport",
      "ident": "EBAS",
      "local_code": null,
      "region": "BG-SOF",
      "type": "balloonport",
      "country": "BG",
      "continent": null,
      "coordinates": "-112.292, 34.6842",
      "municipality": "Coyote Thum",
      "elevation_ft": "8244.0",
      "gps_code": "RF32",
      "iata_code": null
    },
    {
      "id": 19880,
      "name": "Airfield Gravenvoeren",
      "ident": "EBAS",
      "local_code": null,
      "region": "SP-VAL",
      "type": "small_airport",
      "country": "SP",
      "continent": null,
      "coordinates": "-112.292, 34.6842",
      "municipality": "Coyote Thum",
      "elevation_ft": "8244.0",
      "gps_code": "RF32",
      "iata_code": null
    },
    {
      "id": 25092,
      "name": "Der Germ heliport",
      "ident": "EBAS",
      "local_code": null,
      "region": "TUR-ANT",
      "type": "closed",
      "country": "TUR",
      "continent": null,
      "coordinates": "-112.292, 34.6842",
      "municipality": "Coyote Thum",
      "elevation_ft": "8244.0",
      "gps_code": "RF32",
      "iata_code": null
    },
    {
      "id": 4281,
      "name": "Airfield Gravenvoeren",
      "ident": "EBAS",
      "local_code": null,
      "region": "SP-BAR",
      "type": "large_airport",
      "country": "SP",
      "continent": null,
      "coordinates": "-112.292, 34.6842",
      "municipality": "Coyote Thum",
      "elevation_ft": "8244.0",
      "gps_code": "RF32",
      "iata_code": null
    },
    {
      "id": 2091,
      "name": "Der Germ heliport",
      "ident": "EBAS",
      "local_code": null,
      "region": "TUR-IST",
      "type": "seaplane_base",
      "country": "TUR",
      "continent": null,
      "coordinates": "-112.292, 34.6842",
      "municipality": "Coyote Thum",
      "elevation_ft": "8244.0",
      "gps_code": "RF32",
      "iata_code": null
    },
    {
      "id": 4873,
      "name": "Airfield Anta",
      "ident": "EBAS",
      "local_code": null,
      "region": "SP-BAR",
      "type": "medium_airport",
      "country": "SP",
      "continent": null,
      "coordinates": "-112.292, 34.6842",
      "municipality": "Coyote Thum",
      "elevation_ft": "8244.0",
      "gps_code": "RF32",
      "iata_code": null
    },
    {
      "id": 6292,
      "name": "Der Germ heliport",
      "ident": "EBAS",
      "local_code": null,
      "region": "TUR-IST",
      "type": "closed",
      "country": "TUR",
      "continent": null,
      "coordinates": "-112.292, 34.6842",
      "municipality": "Coyote Thum",
      "elevation_ft": "8244.0",
      "gps_code": "RF32",
      "iata_code": null
    },
    {
      "id": 4680,
      "name": "Airfield Gravenvoeren",
      "ident": "EBAS",
      "local_code": null,
      "region": "SP-MD",
      "type": "small_airport",
      "country": "SP",
      "continent": null,
      "coordinates": "-112.292, 34.6842",
      "municipality": "Coyote Thum",
      "elevation_ft": "8244.0",
      "gps_code": "RF32",
      "iata_code": null
    },
    {
      "id": 2942,
      "name": "De Fra heliport",
      "ident": "EBAS",
      "local_code": null,
      "region": "FR-PS",
      "type": "closed",
      "country": "FR",
      "continent": null,
      "coordinates": "-112.292, 34.6842",
      "municipality": "Coyote Thum",
      "elevation_ft": "8244.0",
      "gps_code": "RF32",
      "iata_code": null
    },
    {
      "id": 17580,
      "name": "s Gravenwezel heliport",
      "ident": "EBAS",
      "local_code": null,
      "region": "SP-MD",
      "type": "medium_airport",
      "country": "SP",
      "continent": null,
      "coordinates": "-112.292, 34.6842",
      "municipality": "Coyote Thum",
      "elevation_ft": "8244.0",
      "gps_code": "RF32",
      "iata_code": null
    },
    {
      "id": 2472,
      "name": "La Fra heliport",
      "ident": "EBAS",
      "local_code": null,
      "region": "FR-PS",
      "type": "closed",
      "country": "FR",
      "continent": null,
      "coordinates": "-112.292, 34.6842",
      "municipality": "Coyote Thum",
      "elevation_ft": "8244.0",
      "gps_code": "RF32",
      "iata_code": null
    },
    {
      "id": 34252,
      "name": "s Gravenwezel heliport",
      "ident": "EBAS",
      "local_code": null,
      "region": "BG-SOF",
      "type": "seaplane_base",
      "country": "BG",
      "continent": null,
      "coordinates": "-112.292, 34.6842",
      "municipality": "Coyote Thum",
      "elevation_ft": "8244.0",
      "gps_code": "RF32",
      "iata_code": null
    },
    {
      "id": 2801,
      "name": "La Fra airport",
      "ident": "EBAS",
      "local_code": null,
      "region": "FR-PS",
      "type": "closed",
      "country": "FR",
      "continent": null,
      "coordinates": "-112.292, 34.6842",
      "municipality": "Coyote Thum",
      "elevation_ft": "8244.0",
      "gps_code": "RF32",
      "iata_code": null
    },
    {
      "id": 3126,
      "name": "Gravenwezel airportt",
      "ident": "EBAS",
      "local_code": null,
      "region": "BG-SOF",
      "type": "seaplane_base",
      "country": "BG",
      "continent": null,
      "coordinates": "-112.292, 34.6842",
      "municipality": "Coyote Thum",
      "elevation_ft": "8244.0",
      "gps_code": "RF32",
      "iata_code": null
    }
  ],
  "auth": {
    "access": "feivgmek345nrovb567epmnrvbnek",
    "refresh": "string"
  },
  "auth-users": [
    {
      "id": "2023-05-26T10:34:10.999Z",
      "username": "ivan11",
      "password": "123456"
    },
    {
      "id": "2023-05-26T11:02:19.184Z",
      "username": "kiril99",
      "password": "12345"
    },
    {
      "id": "2023-05-26T11:03:50.508Z",
      "username": "andrew1234",
      "password": "123456"
    }
  ]
}